{
  "pagination": {
    "offset": 0,
    "limit": 100,
    "count": 51,
    "total": 51
  },
  "data": [
    {
      "id": "7078065",
      "gmt": "1",
      "airport_id": "27",
      "iata_code": "ABC",
      "city_iata_code": "ABC",
      "icao_code": "LEAB",
      "country_iso2": "ES",
      "geoname_id": "6299323",
      "latitude": "38.948334",
      "longitude": "-1.863333",
      "airport_name": "Los Llanos",
      "country_name": "Spain",
      "phone_number": null,
      "timezone": "Europe/Madrid"
    },
    {
      "id": "7078093",
      "gmt": null,
      "airport_id": "55",
      "iata_code": "ACE",
      "city_iata_code": "ACE",
      "icao_code": "GCRR",
      "country_iso2": "ES",
      "geoname_id": "6297189",
      "latitude": "28.950668",
      "longitude": "-13.609059",
      "airport_name": "Lanzarote",
      "country_name": "Spain",
      "phone_number": "902 404 704",
      "timezone": "Atlantic/Canary"
    },
    {
      "id": "7078181",
      "gmt": "1",
      "airport_id": "143",
      "iata_code": "AGP",
      "city_iata_code": "AGP",
      "icao_code": "LEMG",
      "country_iso2": "ES",
      "geoname_id": "6299346",
      "latitude": "36.675182",
      "longitude": "-4.489616",
      "airport_name": "Pablo Ruiz Picasso",
      "country_name": "Spain",
      "phone_number": "902 404 704",
      "timezone": "Europe/Madrid"
    },
    {
      "id": "7078267",
      "gmt": "1",
      "airport_id": "229",
      "iata_code": "ALC",
      "city_iata_code": "ALC",
      "icao_code": "LEAL",
      "country_iso2": "ES",
      "geoname_id": "6255112",
      "latitude": "38.287098",
      "longitude": "-0.557381",
      "airport_name": "Alicante El Altet",
      "country_name": "Spain",
      "phone_number": "902 404 704",
      "timezone": "Europe/Madrid"
    },
    {
      "id": "7078618",
      "gmt": "1",
      "airport_id": "580",
      "iata_code": "BCN",
      "city_iata_code": "BCN",
      "icao_code": "LEBL",
      "country_iso2": "ES",
      "geoname_id": "3128760",
      "latitude": "41.30303",
      "longitude": "2.07593",
      "airport_name": "El Prat De Llobregat",
      "country_name": "Spain",
      "phone_number": "902 404 704",
      "timezone": "Europe/Madrid"
    },
    {
      "id": "7078766",
      "gmt": "1",
      "airport_id": "728",
      "iata_code": "BIO",
      "city_iata_code": "BIO",
      "icao_code": "LEBB",
      "country_iso2": "ES",
      "geoname_id": "6299328",
      "latitude": "43.305534",
      "longitude": "-2.905808",
      "airport_name": "Bilbao",
      "country_name": "Spain",
      "phone_number": null,
      "timezone": "Europe/Madrid"
    },
    {
      "id": "7078801",
      "gmt": "1",
      "airport_id": "763",
      "iata_code": "BJZ",
      "city_iata_code": "BJZ",
      "icao_code": "LEBZ",
      "country_iso2": "ES",
      "geoname_id": "6299330",
      "latitude": "38.891666",
      "longitude": "-6.82",
      "airport_name": "Talaveral La Real",
      "country_name": "Spain",
      "phone_number": null,
      "timezone": "Europe/Madrid"
    },
    {
      "id": "7079253",
      "gmt": "1",
      "airport_id": "1215",
      "iata_code": "CDT",
      "city_iata_code": "CDT",
      "icao_code": "LECN",
      "country_iso2": "ES",
      "geoname_id": "8260997",
      "latitude": "40.2097",
      "longitude": "0.06972",
      "airport_name": "Castellon",
      "country_name": "Spain",
      "phone_number": null,
      "timezone": "Europe/Madrid"
    },
    {
      "id": "7080027",
      "gmt": "1",
      "airport_id": "1989",
      "iata_code": "EAS",
      "city_iata_code": "EAS",
      "icao_code": "LESO",
      "country_iso2": "ES",
      "geoname_id": "6299355",
      "latitude": "43.3564",
      "longitude": "-1.793538",
      "airport_name": "Donostia - San Sebastian",
      "country_name": "Spain",
      "phone_number": null,
      "timezone": "Europe/Madrid"
    },
    {
      "id": "7080483",
      "gmt": null,
      "airport_id": "2445",
      "iata_code": "FUE",
      "city_iata_code": "FUE",
      "icao_code": "GCFV",
      "country_iso2": "ES",
      "geoname_id": "6297185",
      "latitude": "28.450605",
      "longitude": "-13.869893",
      "airport_name": "Fuerteventura",
      "country_name": "Spain",
      "phone_number": null,
      "timezone": "Atlantic/Canary"
    },
    {
      "id": "7080704",
      "gmt": null,
      "airport_id": "2666",
      "iata_code": "GMZ",
      "city_iata_code": "GMZ",
      "icao_code": "GCGM",
      "country_iso2": "ES",
      "geoname_id": "6452903",
      "latitude": "28.016666",
      "longitude": "-17.2",
      "airport_name": "La Gomera",
      "country_name": "Spain",
      "phone_number": null,
      "timezone": "Atlantic/Canary"
    },
    {
      "id": "7080768",
      "gmt": "1",
      "airport_id": "2730",
      "iata_code": "GRO",
      "city_iata_code": "GRO",
      "icao_code": "LEGE",
      "country_iso2": "ES",
      "geoname_id": "6299335",
      "latitude": "41.89804",
      "longitude": "2.766383",
      "airport_name": "Girona-Costa Brava",
      "country_name": "Spain",
      "phone_number": null,
      "timezone": "Europe/Madrid"
    },
    {
      "id": "7080777",
      "gmt": "1",
      "airport_id": "2739",
      "iata_code": "GRX",
      "city_iata_code": "GRX",
      "icao_code": "LEGR",
      "country_iso2": "ES",
      "geoname_id": "6299336",
      "latitude": "37.184727",
      "longitude": "-3.776954",
      "airport_name": "Granada",
      "country_name": "Spain",
      "phone_number": null,
      "timezone": "Europe/Madrid"
    },
    {
      "id": "7081113",
      "gmt": "1",
      "airport_id": "3075",
      "iata_code": "HSK",
      "city_iata_code": "HSK",
      "icao_code": "LEHC",
      "country_iso2": "ES",
      "geoname_id": "7116799",
      "latitude": "42.08093",
      "longitude": "-0.323469",
      "airport_name": "Huesca-Pirineos",
      "country_name": "Spain",
      "phone_number": null,
      "timezone": "Europe/Madrid"
    },
    {
      "id": "7081216",
      "gmt": "1",
      "airport_id": "3178",
      "iata_code": "IBZ",
      "city_iata_code": "IBZ",
      "icao_code": "LEIB",
      "country_iso2": "ES",
      "geoname_id": "6299339",
      "latitude": "38.876595",
      "longitude": "1.367803",
      "airport_name": "Ibiza",
      "country_name": "Spain",
      "phone_number": "902 404 704",
      "timezone": "Europe/Madrid"
    },
    {
      "id": "7081290",
      "gmt": "1",
      "airport_id": "3252",
      "iata_code": "ILD",
      "city_iata_code": "ILD",
      "icao_code": "LEDA",
      "country_iso2": "ES",
      "geoname_id": "3118514",
      "latitude": "41.728836",
      "longitude": "0.543302",
      "airport_name": "Alguaire",
      "country_name": "Spain",
      "phone_number": null,
      "timezone": "Europe/Madrid"
    },
    {
      "id": "7082262",
      "gmt": "1",
      "airport_id": "4224",
      "iata_code": "LCG",
      "city_iata_code": "LCG",
      "icao_code": "LECO",
      "country_iso2": "ES",
      "geoname_id": "6299332",
      "latitude": "43.30236",
      "longitude": "-8.381923",
      "airport_name": "La Coruna",
      "country_name": "Spain",
      "phone_number": null,
      "timezone": "Europe/Madrid"
    },
    {
      "id": "7082307",
      "gmt": "1",
      "airport_id": "4269",
      "iata_code": "LEI",
      "city_iata_code": "LEI",
      "icao_code": "LEAM",
      "country_iso2": "ES",
      "geoname_id": "6299325",
      "latitude": "36.847984",
      "longitude": "-2.371873",
      "airport_name": "Almeria",
      "country_name": "Spain",
      "phone_number": null,
      "timezone": "Europe/Madrid"
    },
    {
      "id": "7082312",
      "gmt": "1",
      "airport_id": "4274",
      "iata_code": "LEN",
      "city_iata_code": "LEN",
      "icao_code": "LELN",
      "country_iso2": "ES",
      "geoname_id": "6299343",
      "latitude": "42.59057",
      "longitude": "-5.64629",
      "airport_name": "Leon",
      "country_name": "Spain",
      "phone_number": null,
      "timezone": "Europe/Madrid"
    },
    {
      "id": "7082319",
      "gmt": "1",
      "airport_id": "4281",
      "iata_code": "LEU",
      "city_iata_code": "LEU",
      "icao_code": "LESU",
      "country_iso2": "ES",
      "geoname_id": "7668307",
      "latitude": "42.416668",
      "longitude": "1.466667",
      "airport_name": "Seo de Urgel",
      "country_name": "Spain",
      "phone_number": null,
      "timezone": "Europe/Madrid"
    },
    {
      "id": "7082504",
      "gmt": null,
      "airport_id": "4466",
      "iata_code": "LPA",
      "city_iata_code": "LPA",
      "icao_code": "GCLP",
      "country_iso2": "ES",
      "geoname_id": "6297188",
      "latitude": "27.938944",
      "longitude": "-15.389351",
      "airport_name": "Gran Canaria",
      "country_name": "Spain",
      "phone_number": "902 404 704",
      "timezone": "Atlantic/Canary"
    },
    {
      "id": "7082682",
      "gmt": "1",
      "airport_id": "4644",
      "iata_code": "MAD",
      "city_iata_code": "MAD",
      "icao_code": "LEMD",
      "country_iso2": "ES",
      "geoname_id": "6299345",
      "latitude": "40.46515",
      "longitude": "-3.570209",
      "airport_name": "Barajas",
      "country_name": "Spain",
      "phone_number": "902-404-704",
      "timezone": "Europe/Madrid"
    },
    {
      "id": "7082686",
      "gmt": "1",
      "airport_id": "4648",
      "iata_code": "MAH",
      "city_iata_code": "MAH",
      "icao_code": "LEMH",
      "country_iso2": "ES",
      "geoname_id": "6299347",
      "latitude": "39.864746",
      "longitude": "4.226256",
      "airport_name": "Mahon",
      "country_name": "Spain",
      "phone_number": null,
      "timezone": "Europe/Madrid"
    },
    {
      "id": "7082928",
      "gmt": "1",
      "airport_id": "4890",
      "iata_code": "MJV",
      "city_iata_code": "MJV",
      "icao_code": "LELC",
      "country_iso2": "ES",
      "geoname_id": "6299341",
      "latitude": "37.77521",
      "longitude": "-0.81904",
      "airport_name": "San Javier",
      "country_name": "Spain",
      "phone_number": null,
      "timezone": "Europe/Madrid"
    },
    {
      "id": "7082970",
      "gmt": "1",
      "airport_id": "4932",
      "iata_code": "MLN",
      "city_iata_code": "MLN",
      "icao_code": "GEML",
      "country_iso2": "ES",
      "geoname_id": "6297192",
      "latitude": "35.277077",
      "longitude": "-2.957473",
      "airport_name": "Melilla",
      "country_name": "Spain",
      "phone_number": null,
      "timezone": "Africa/Ceuta"
    },
    {
      "id": "7083704",
      "gmt": "1",
      "airport_id": "5666",
      "iata_code": "ODB",
      "city_iata_code": "ODB",
      "icao_code": "LEBA",
      "country_iso2": "ES",
      "geoname_id": "6299327",
      "latitude": "37.84111",
      "longitude": "-4.847222",
      "airport_name": "Cordoba",
      "country_name": "Spain",
      "phone_number": null,
      "timezone": "Europe/Madrid"
    },
    {
      "id": "7083935",
      "gmt": "1",
      "airport_id": "5897",
      "iata_code": "OVD",
      "city_iata_code": "OVD",
      "icao_code": "LEAS",
      "country_iso2": "ES",
      "geoname_id": "6299326",
      "latitude": "43.55891",
      "longitude": "-6.032094",
      "airport_name": "Asturias",
      "country_name": "Spain",
      "phone_number": null,
      "timezone": "Europe/Madrid"
    },
    {
      "id": "7083968",
      "gmt": "1",
      "airport_id": "5930",
      "iata_code": "OZP",
      "city_iata_code": "OZP",
      "icao_code": "LEMO",
      "country_iso2": "ES",
      "geoname_id": "6299348",
      "latitude": "37.24917",
      "longitude": "-5.759444",
      "airport_name": "Moron",
      "country_name": "Spain",
      "phone_number": null,
      "timezone": "Europe/Madrid"
    },
    {
      "id": "7084225",
      "gmt": "1",
      "airport_id": "6187",
      "iata_code": "PMI",
      "city_iata_code": "PMI",
      "icao_code": "LEPA",
      "country_iso2": "ES",
      "geoname_id": "6299349",
      "latitude": "39.547653",
      "longitude": "2.730388",
      "airport_name": "Son Sant Joan Airport",
      "country_name": "Spain",
      "phone_number": "902-404-704",
      "timezone": "Europe/Madrid"
    },
    {
      "id": "7084242",
      "gmt": "1",
      "airport_id": "6204",
      "iata_code": "PNA",
      "city_iata_code": "PNA",
      "icao_code": "LEPP",
      "country_iso2": "ES",
      "geoname_id": "6299350",
      "latitude": "42.767498",
      "longitude": "-1.639347",
      "airport_name": "Pamplona",
      "country_name": "Spain",
      "phone_number": null,
      "timezone": "Europe/Madrid"
    },
    {
      "id": "7084705",
      "gmt": "1",
      "airport_id": "6667",
      "iata_code": "REU",
      "city_iata_code": "REU",
      "icao_code": "LERS",
      "country_iso2": "ES",
      "geoname_id": "6299352",
      "latitude": "41.146103",
      "longitude": "1.153319",
      "airport_name": "Reus",
      "country_name": "Spain",
      "phone_number": null,
      "timezone": "Europe/Madrid"
    },
    {
      "id": "7084727",
      "gmt": "1",
      "airport_id": "6689",
      "iata_code": "RGS",
      "city_iata_code": "RGS",
      "icao_code": "LEBG",
      "country_iso2": "ES",
      "geoname_id": "6299329",
      "latitude": "42.35494",
      "longitude": "-3.62295",
      "airport_name": "Burgos",
      "country_name": "Spain",
      "phone_number": null,
      "timezone": "Europe/Madrid"
    },
    {
      "id": "7084764",
      "gmt": "1",
      "airport_id": "6726",
      "iata_code": "RJL",
      "city_iata_code": "RJL",
      "icao_code": "LELO",
      "country_iso2": "ES",
      "geoname_id": "8298723",
      "latitude": "42.456944",
      "longitude": "-2.323611",
      "airport_name": "Agoncillo",
      "country_name": "Spain",
      "phone_number": null,
      "timezone": "Europe/Madrid"
    },
    {
      "id": "7084806",
      "gmt": "1",
      "airport_id": "6768",
      "iata_code": "RMU",
      "city_iata_code": "RMU",
      "icao_code": "LEMI",
      "country_iso2": "ES",
      "geoname_id": "8299151",
      "latitude": "37.7933",
      "longitude": "-1.14028",
      "airport_name": "Corvera International",
      "country_name": "Spain",
      "phone_number": null,
      "timezone": "Europe/Madrid"
    },
    {
      "id": "7085011",
      "gmt": "1",
      "airport_id": "6973",
      "iata_code": "SCQ",
      "city_iata_code": "SCQ",
      "icao_code": "LEST",
      "country_iso2": "ES",
      "geoname_id": "6299356",
      "latitude": "42.897316",
      "longitude": "-8.420327",
      "airport_name": "Santiago De Compostela",
      "country_name": "Spain",
      "phone_number": null,
      "timezone": "Europe/Madrid"
    },
    {
      "id": "7085035",
      "gmt": "1",
      "airport_id": "6997",
      "iata_code": "SDR",
      "city_iata_code": "SDR",
      "icao_code": "LEXJ",
      "country_iso2": "ES",
      "geoname_id": "3114305",
      "latitude": "43.423084",
      "longitude": "-3.824453",
      "airport_name": "Santander",
      "country_name": "Spain",
      "phone_number": null,
      "timezone": "Europe/Madrid"
    },
    {
      "id": "7085222",
      "gmt": "1",
      "airport_id": "7184",
      "iata_code": "SLM",
      "city_iata_code": "SLM",
      "icao_code": "LESA",
      "country_iso2": "ES",
      "geoname_id": "6299354",
      "latitude": "40.966667",
      "longitude": "-5.65",
      "airport_name": "Matacan",
      "country_name": "Spain",
      "phone_number": null,
      "timezone": "Europe/Madrid"
    },
    {
      "id": "7085315",
      "gmt": null,
      "airport_id": "7277",
      "iata_code": "SPC",
      "city_iata_code": "SPC",
      "icao_code": "GCLA",
      "country_iso2": "ES",
      "geoname_id": "6297187",
      "latitude": "28.626389",
      "longitude": "-17.755556",
      "airport_name": "La Palma",
      "country_name": "Spain",
      "phone_number": null,
      "timezone": "Atlantic/Canary"
    },
    {
      "id": "7085470",
      "gmt": "1",
      "airport_id": "7432",
      "iata_code": "SVQ",
      "city_iata_code": "SVQ",
      "icao_code": "LEZL",
      "country_iso2": "ES",
      "geoname_id": "6299363",
      "latitude": "37.423477",
      "longitude": "-5.900136",
      "airport_name": "San Pablo",
      "country_name": "Spain",
      "phone_number": null,
      "timezone": "Europe/Madrid"
    },
    {
      "id": "7085691",
      "gmt": null,
      "airport_id": "7653",
      "iata_code": "TFN",
      "city_iata_code": "TCI",
      "icao_code": "GCXO",
      "country_iso2": "ES",
      "geoname_id": "6297191",
      "latitude": "28.488056",
      "longitude": "-16.345982",
      "airport_name": "Norte Los Rodeos",
      "country_name": "Spain",
      "phone_number": null,
      "timezone": "Atlantic/Canary"
    },
    {
      "id": "7085693",
      "gmt": null,
      "airport_id": "7655",
      "iata_code": "TFS",
      "city_iata_code": "TCI",
      "icao_code": "GCTS",
      "country_iso2": "ES",
      "geoname_id": "6297190",
      "latitude": "28.044443",
      "longitude": "-16.5725",
      "airport_name": "Sur Reina Sofia",
      "country_name": "Spain",
      "phone_number": "+34 91 321 10",
      "timezone": "Atlantic/Canary"
    },
    {
      "id": "7085886",
      "gmt": "1",
      "airport_id": "7848",
      "iata_code": "TOJ",
      "city_iata_code": "MAD",
      "icao_code": "LETO",
      "country_iso2": "ES",
      "geoname_id": "6301767",
      "latitude": "40.455555",
      "longitude": "-3.546667",
      "airport_name": "Torrejon AFB",
      "country_name": "Spain",
      "phone_number": null,
      "timezone": "Europe/Madrid"
    },
    {
      "id": "7086311",
      "gmt": null,
      "airport_id": "8273",
      "iata_code": "VDE",
      "city_iata_code": "VDE",
      "icao_code": "GCHI",
      "country_iso2": "ES",
      "geoname_id": "6297186",
      "latitude": "27.813969",
      "longitude": "-17.884937",
      "airport_name": "Hierro",
      "country_name": "Spain",
      "phone_number": null,
      "timezone": "Atlantic/Canary"
    },
    {
      "id": "7086333",
      "gmt": "1",
      "airport_id": "8295",
      "iata_code": "VGO",
      "city_iata_code": "VGO",
      "icao_code": "LEVX",
      "country_iso2": "ES",
      "geoname_id": "6299360",
      "latitude": "42.224552",
      "longitude": "-8.634025",
      "airport_name": "Vigo",
      "country_name": "Spain",
      "phone_number": null,
      "timezone": "Europe/Madrid"
    },
    {
      "id": "7086356",
      "gmt": "1",
      "airport_id": "8318",
      "iata_code": "VIT",
      "city_iata_code": "VIT",
      "icao_code": "LEVT",
      "country_iso2": "ES",
      "geoname_id": "6299359",
      "latitude": "42.833332",
      "longitude": "-2.5",
      "airport_name": "Vitoria",
      "country_name": "Spain",
      "phone_number": null,
      "timezone": "Europe/Madrid"
    },
    {
      "id": "7086370",
      "gmt": "1",
      "airport_id": "8332",
      "iata_code": "VLC",
      "city_iata_code": "VLC",
      "icao_code": "LEVC",
      "country_iso2": "ES",
      "geoname_id": "6299357",
      "latitude": "39.49179",
      "longitude": "-0.473475",
      "airport_name": "Valencia",
      "country_name": "Spain",
      "phone_number": null,
      "timezone": "Europe/Madrid"
    },
    {
      "id": "7086376",
      "gmt": "1",
      "airport_id": "8338",
      "iata_code": "VLL",
      "city_iata_code": "VLL",
      "icao_code": "LEVD",
      "country_iso2": "ES",
      "geoname_id": "6299358",
      "latitude": "41.70581",
      "longitude": "-4.844626",
      "airport_name": "Valladolid",
      "country_name": "Spain",
      "phone_number": null,
      "timezone": "Europe/Madrid"
    },
    {
      "id": "7087011",
      "gmt": "1",
      "airport_id": "8973",
      "iata_code": "XRY",
      "city_iata_code": "XRY",
      "icao_code": "LEJR",
      "country_iso2": "ES",
      "geoname_id": "6299340",
      "latitude": "36.750614",
      "longitude": "-6.064535",
      "airport_name": "Jerez De La Frontera",
      "country_name": "Spain",
      "phone_number": null,
      "timezone": "Europe/Madrid"
    },
    {
      "id": "7087665",
      "gmt": "1",
      "airport_id": "9627",
      "iata_code": "ZAZ",
      "city_iata_code": "ZAZ",
      "icao_code": "LEZG",
      "country_iso2": "ES",
      "geoname_id": "6301769",
      "latitude": "41.66386",
      "longitude": "-1.007466",
      "airport_name": "Zaragoza",
      "country_name": "Spain",
      "phone_number": null,
      "timezone": "Europe/Madrid"
    },
    {
      "id": "7088110",
      "gmt": "1",
      "airport_id": "10358",
      "iata_code": "CQM",
      "city_iata_code": null,
      "icao_code": "LERL",
      "country_iso2": "ES",
      "geoname_id": "6452899",
      "latitude": "38.8563888889",
      "longitude": "-3.97",
      "airport_name": "Ciudad Real Central Airport\r\n",
      "country_name": "Spain",
      "phone_number": null,
      "timezone": null
    },
    {
      "id": "7088239",
      "gmt": "1",
      "airport_id": "10487",
      "iata_code": "TEV",
      "city_iata_code": null,
      "icao_code": "LETL",
      "country_iso2": "ES",
      "geoname_id": "10943187",
      "latitude": "40.411944",
      "longitude": "-1.2175",
      "airport_name": "Teruel Airport",
      "country_name": "Spain",
      "phone_number": null,
      "timezone": null
    }
  ]
}
